<?xml version="1.0" encoding="utf-8" ?>
<markers>
<marker name="Isles of Scilly" lat="49.9" lng="-6.35"></marker>
<marker name="Cornwall" lat="50.5" lng="-4.5"></marker>
<marker name="Devon" lat="50.8" lng="-3.8"></marker>
<marker name="Dorset" lat="50.8" lng="-2.8"></marker>
<marker name="Somerset" lat="51.0" lng="-3"></marker>
<marker name="Plymouth" lat="50.35" lng="-4.1"></marker>
<marker name="Torbay" lat="50.45" lng="-3.55"></marker>
<marker name="Poole" lat="50.7" lng="-2"></marker>
<marker name="Bournemouth" lat="50.7" lng="-1.8"></marker>
<marker name="North Somerset" lat="51.3" lng="-2.8"></marker>
<marker name="Bristol, City of" lat="51.45" lng="-2.6"></marker>
<marker name="Bath and North East Somerset" lat="51.35" lng="-2.35"></marker>
<marker name="Wiltshire" lat="51.1" lng="-1.8"></marker>
<marker name="Southampton" lat="50.9" lng="-1.45"></marker>
<marker name="Portsmouth" lat="50.8" lng="-1.1"></marker>
<marker name="Reading" lat="51.4" lng="-1"></marker>
<marker name="Windsor and Maidenhead" lat="51.5" lng="-0.65"></marker>
<marker name="Hampshire" lat="51.1" lng="-1.1"></marker>
<marker name="South Gloucestershire" lat="51.6" lng="-2.45"></marker>
<marker name="Gloucestershire" lat="51.8" lng="-2.1"></marker>
<marker name="Oxfordshire" lat="51.75" lng="-1.3"></marker>
<marker name="Swindon" lat="51.55" lng="-1.75"></marker>
<marker name="Isle of Wight" lat="50.75" lng="-1.3"></marker>
<marker name="West Sussex" lat="50.9" lng="-0.5"></marker>
<marker name="Brighton and Hove" lat="50.85" lng="-0.15"></marker>
<marker name="East Sussex" lat="50.9" lng="0.3"></marker>
<marker name="Kent" lat="51.2" lng="0.8"></marker>
<marker name="Surrey" lat="51.2" lng="-0.54"></marker>
<marker name="Kingston upon Thames" lat="51.4" lng="-0.35"></marker>
<marker name="Merton" lat="51.35" lng="-0.25"></marker>
<marker name="Sutton" lat="51.3" lng="-0.175"></marker>
<marker name="Croydon" lat="51.35" lng="-0.125"></marker>
<marker name="Bromley" lat="51.35" lng="0.05"></marker>
<marker name="Greenwich" lat="51.45" lng="0.0"></marker>
<marker name="Hammersmith and Fulham" lat="51.5" lng="-0.2"></marker>
<marker name="Richmond upon Thames" lat="51.45" lng="-0.3"></marker>
<marker name="Westminster" lat="51.5" lng="-0.15"></marker>
<marker name="Wandsworth" lat="51.45" lng="-0.225"></marker>
<marker name="Waltham Forest" lat="51.6" lng="0.1"></marker>
<marker name="Warwickshire" lat="52.1" lng="-1.5"></marker>
<marker name="Coventry" lat="52.4" lng="-1.5"></marker>
<marker name="Birmingham" lat="52.45" lng="-1.85"></marker>
<marker name="Leicester" lat="52.6" lng="-1.15"></marker>
<marker name="Shropshire" lat="52.7" lng="-2.7"></marker>
<marker name="Torfaen" lat="51.7" lng="-3.0"></marker>
<marker name="Cardiff" lat="51.45" lng="-3.2"></marker>
<marker name="The Vale of Glamorgan" lat="51.4" lng="-3.4"></marker>
<marker name="Caerphilly" lat="51.55" lng="-3.25" type="bar"></marker>
<marker name="Blaenau Gwent" lat="51.75" lng="-3.15" type="bar"></marker>
<marker name="Bridgend" lat="51.5" lng="-3.6" type="bar"></marker>
<marker name="Swansea" lat="51.6" lng="-3.95" type="bar"></marker>
<marker name="Pembrokeshire" lat="51.85" lng="-4.9" type="bar"></marker>
<marker name="Carmarthenshire" lat="51.85" lng="-4.3" type="bar"></marker>
<marker name="Neath Port Talbot" lat="51.65" lng="-3.8" type="bar"></marker>
<marker name="Merthyr Tydfil" lat="51.75" lng="-3.35" type="bar"></marker>
<marker name="Rhondda, Cynon Taff" lat="51.6" lng="-3.45" type="bar"></marker>
<marker name="Powys" lat="52.25" lng="-3.35" type="bar"></marker>
<marker name="Ceredigion" lat="52.3" lng="-3.9" type="bar"></marker>
<marker name="Gwynedd" lat="53.0" lng="-4.1" type="bar"></marker>
<marker name="Flintshire" lat="53.25" lng="-3.35" type="bar"></marker>
<marker name="Denbighshire" lat="53.05" lng="-3.25" type="bar"></marker>
<marker name="Conwy" lat="53.3" lng="-3.75" type="bar"></marker>
<marker name="Anglesey" lat="53.25" lng="-4.3" type="bar"></marker>
<marker name="Blackpool" lat="53.8" lng="-3.05" type="bar"></marker>
<marker name="Cheshire East" lat="53.2" lng="-2.25" type="bar"></marker>
<marker name="Cheshire West and Chester" lat="53.2" lng="-2.6" type="bar"></marker>
<marker name="Knowsley" lat="53.45" lng="-2.8" type="bar"></marker>
<marker name="Salford" lat="53.475" lng="-2.3" type="bar"></marker>
<marker name="Sefton" lat="53.5" lng="-3.0" type="bar"></marker>
<marker name="St. Helens" lat="53.45" lng="-2.7" type="bar"></marker>
<marker name="Stockport" lat="53.4" lng="-2.15" type="bar"></marker>
<marker name="Blackburn with Darwen" lat="53.7" lng="-2.5" type="bar"></marker>
<marker name="Lancashire" lat="54.0" lng="-2.6" type="bar"></marker>
<marker name="Cumbria" lat="54.6" lng="-2.8" type="bar"></marker>
<marker name="Calderdale" lat="53.7" lng="-1.85" type="bar"></marker>
<marker name="Liverpool" lat="53.4" lng="-2.95" type="bar"></marker>
<marker name="Manchester" lat="53.45" lng="-2.25" type="bar"></marker>
<marker name="Staffordshire" lat="52.75" lng="-2.1" type="bar"></marker>
<marker name="Telford and Wrekin" lat="52.75" lng="-2.48" type="bar"></marker>
<marker name="Trafford" lat="53.3" lng="-2.2" type="bar"></marker>
<marker name="Warrington" lat="53.4" lng="-2.55" type="bar"></marker>
<marker name="Walsall" lat="52.6" lng="-1.9" type="bar"></marker>
<marker name="Wigan" lat="53.5" lng="-2.6" type="bar"></marker>
<marker name="Wirral" lat="53.4" lng="-3.1" type="bar"></marker>
<marker name="Halton" lat="53.3" lng="-2.75" type="bar"></marker>
<marker name="Leeds" lat="53.8" lng="-1.55" type="bar"></marker>
<marker name="Bradford" lat="53.8" lng="-1.75" type="bar"></marker>
<marker name="County Durham" lat="54.7" lng="-1.8" type="bar"></marker>
<marker name="Darlington" lat="54.5" lng="-1.55" type="bar"></marker>
<marker name="Kingston upon Hull, City of" lat="53.75" lng="-0.35" type="bar"></marker>
<marker name="Hartlepool" lat="54.7" lng="-1.2" type="bar"></marker>
<marker name="Kirklees" lat="53.65" lng="-1.8" type="bar"></marker>
<marker name="Lincolnshire" lat="53.2" lng="-0.2" type="bar"></marker>
<marker name="Middlesbrough" lat="54.55" lng="-1.25" type="bar"></marker>
<marker name="Newcastle upon Tyne" lat="55.0" lng="-1.6" type="bar"></marker>
<marker name="North East Lincolnshire" lat="53.5" lng="-0.15" type="bar"></marker>
<marker name="North Lincolnshire" lat="53.6" lng="-0.55" type="bar"></marker>
<marker name="North Tyneside" lat="55.0" lng="-1.5" type="bar"></marker>
<marker name="North Yorkshire" lat="54.25" lng="-1.45" type="bar"></marker>
<marker name="Northumberland" lat="55.2" lng="-2.05" type="bar"></marker>
<marker name="South Tyneside" lat="55.2" lng="-2.05" type="bar"></marker>
<marker name="Stockton-on-Tees" lat="54.55" lng="-1.4" type="bar"></marker>
<marker name="Sunderland" lat="54.9" lng="-1.38" type="bar"></marker>
<marker name="York" lat="53.95" lng="-1.08" type="bar"></marker>
<marker name="Barnsley" lat="53.55" lng="-1.48" type="bar"></marker>
<marker name="Bolton" lat="53.58" lng="-2.42" type="bar"></marker>
<marker name="Bury" lat="53.59" lng="-2.35" type="bar"></marker>
<marker name="Derbyshire" lat="53.12" lng="-1.51" type="bar"></marker>
<marker name="Derby" lat="52.92" lng="-1.47" type="bar"></marker>
<marker name="Doncaster" lat="53.52" lng="-1.12" type="bar"></marker>
<marker name="East Riding of Yorkshire" lat="53.82" lng="-0.72" type="bar"></marker>
<marker name="Gateshead" lat="54.95" lng="-1.60" type="bar"></marker>
<marker name="Leicestershire" lat="52.65" lng="-1.25" type="bar"></marker>
<marker name="Nottingham" lat="52.95" lng="-1.2" type="bar"></marker>
<marker name="Stoke-on-Trent" lat="53.0" lng="-2.18" type="bar"></marker>
<marker name="Tameside" lat="53.5" lng="-2.08" type="bar"></marker>
<marker name="Wakefield" lat="53.68" lng="-1.51" type="bar"></marker>
<marker name="Dudley" lat="52.51" lng="-2.08" type="bar"></marker>
<marker name="Luton" lat="51.87" lng="-0.42" type="bar"></marker>
<marker name="Monmouthshire" lat="51.77" lng="-2.87" type="bar"></marker>
<marker name="Newport" lat="51.58" lng="-3.00" type="bar"></marker>
<marker name="Nottinghamshire" lat="53.13" lng="-0.90" type="bar"></marker>
<marker name="Oldham" lat="53.54" lng="-2.12" type="bar"></marker>
<marker name="Peterborough" lat="52.57" lng="-0.24" type="bar"></marker>
<marker name="Rochdale" lat="53.61" lng="-2.16" type="bar"></marker>
<marker name="Rotherham" lat="53.43" lng="-1.36" type="bar"></marker>
<marker name="Sheffield" lat="53.38" lng="-1.47" type="bar"></marker>
<marker name="Solihull" lat="52.41" lng="-1.78" type="bar"></marker>
<marker name="Sandwell" lat="52.50" lng="-1.97" type="bar"></marker>
<marker name="Redcar and Cleveland" lat="54.53" lng="-1.03" type="bar"></marker>
<marker name="Rutland" lat="52.65" lng="-0.64" type="bar"></marker>
<marker name="Wrexham" lat="53.04" lng="-2.99" type="bar"></marker>
<marker name="Cambridgeshire" lat="52.28" lng="0.09" type="bar"></marker>
<marker name="Hertfordshire" lat="51.81" lng="-0.24" type="bar"></marker>
<marker name="Herefordshire, County of" lat="52.08" lng="-2.65" type="bar"></marker>
<marker name="Milton Keynes" lat="52.04" lng="-0.76" type="bar"></marker>
<marker name="Northamptonshire" lat="52.27" lng="-0.88" type="bar"></marker>
<marker name="Norfolk" lat="52.61" lng="0.89" type="bar"></marker>
<marker name="Suffolk" lat="52.19" lng="0.97" type="bar"></marker>
<marker name="Worcestershire" lat="52.25" lng="-2.27" type="bar"></marker>
<marker name="Wolverhampton" lat="52.59" lng="-2.13" type="bar"></marker>
<marker name="Wokingham" lat="51.41" lng="-0.83" type="bar"></marker>
<marker name="West Berkshire" lat="51.47" lng="-1.28" type="bar"></marker>
<marker name="Thurrock" lat="51.49" lng="0.35" type="bar"></marker>
<marker name="Southend-on-Sea" lat="51.55" lng="0.71" type="bar"></marker>
<marker name="Slough" lat="51.51" lng="-0.60" type="bar"></marker>
<marker name="Medway" lat="51.40" lng="0.59" type="bar"></marker>
<marker name="Essex" lat="51.77" lng="0.67" type="bar"></marker>
<marker name="Central Bedfordshire" lat="51.98" lng="-0.53" type="bar"></marker>
<marker name="Buckinghamshire" lat="51.81" lng="-0.81" type="bar"></marker>
<marker name="Bracknell Forest" lat="51.41" lng="-0.73" type="bar"></marker>
<marker name="Barking and Dagenham" lat="51.55" lng="0.13" type="bar"></marker>
<marker name="Barnet" lat="51.64" lng="-0.175" type="bar"></marker>
<marker name="Bedford" lat="52.14" lng="-0.46" type="bar"></marker>
<marker name="Bexley" lat="51.44" lng="0.15" type="bar"></marker>
<marker name="Brent" lat="51.56" lng="-0.27" type="bar"></marker>
<marker name="Camden" lat="51.55" lng="-0.1" type="bar"></marker>
<marker name="City of London" lat="51.51" lng="-0.07" type="bar"></marker>
<marker name="Ealing" lat="51.51" lng="-0.325" type="bar"></marker>
<marker name="Enfield" lat="51.65" lng="-0.085" type="bar"></marker>
<marker name="Hackney" lat="51.55" lng="-0.05" type="bar"></marker>
<marker name="Haringey" lat="51.59" lng="-0.13" type="bar"></marker>
<marker name="Harrow" lat="51.58" lng="-0.34" type="bar"></marker>
<marker name="Havering" lat="51.58" lng="0.21" type="bar"></marker>
<marker name="Hillingdon" lat="51.54" lng="-0.45" type="bar"></marker>
<marker name="Hounslow" lat="51.47" lng="-0.38" type="bar"></marker>
<marker name="Islington" lat="51.57" lng="-0.115" type="bar"></marker>
<marker name="Kensington and Chelsea" lat="51.50" lng="-0.19" type="bar"></marker>
<marker name="Lambeth" lat="51.46" lng="-0.14" type="bar"></marker>
<marker name="Lewisham" lat="51.44" lng="-0.03" type="bar"></marker>
<marker name="Newham" lat="51.53" lng="0.04" type="bar"></marker>
<marker name="Redbridge" lat="51.59" lng="0.08" type="bar"></marker>
<marker name="Southwark" lat="51.45" lng="-0.08" type="bar"></marker>
<marker name="Tower Hamlets" lat="51.52" lng="-0.03" type="bar"></marker>
</markers>